[
    {
        "country": "CA",
        "gageName": "AROOSTOOK RIVER NEAR TINKER",
        "state": "NB",
        "siteId": "01AG003",
        "longitude": -67.752,
        "latitude": 46.8164,
        "source": "ENVIRONMENT_CANADA"
    },
    {
        "country": "CA",
        "gageName": "BECAGUIMEC STREAM AT COLDSTREAM",
        "state": "NB",
        "siteId": "01AJ010",
        "longitude": -67.4651,
        "latitude": 46.3409,
        "source": "ENVIRONMENT_CANADA"
    },
    {
        "country": "CA",
        "gageName": "BIG PRESQUE ISLE STREAM AT TRACEY MILLS",
        "state": "NB",
        "siteId": "01AJ004",
        "longitude": -67.7384,
        "latitude": 46.4384,
        "source": "ENVIRONMENT_CANADA"
    },
    {
        "country": "CA",
        "gageName": "BIG TRACADIE RIVER AT MURCHY BRIDGE CROSSING",
        "state": "NB",
        "siteId": "01BL003",
        "longitude": -65.1061,
        "latitude": 47.4358,
        "source": "ENVIRONMENT_CANADA"
    },
    {
        "country": "CA",
        "gageName": "BLACK RIVER AT GARNET SETTLEMENT",
        "state": "NB",
        "siteId": "01BV004",
        "longitude": -65.8492,
        "latitude": 45.3066,
        "source": "ENVIRONMENT_CANADA"
    },
    {
        "country": "CA",
        "gageName": "CANAAN RIVER AT EAST CANAAN",
        "state": "NB",
        "siteId": "01AP002",
        "longitude": -65.3664,
        "latitude": 46.0724,
        "source": "ENVIRONMENT_CANADA"
    },
    {
        "country": "CA",
        "gageName": "CATAMARAN BROOK AT REPAP ROAD BRIDGE",
        "state": "NB",
        "siteId": "01BP002",
        "longitude": -66.1901,
        "latitude": 46.8566,
        "source": "ENVIRONMENT_CANADA"
    },
    {
        "country": "CA",
        "gageName": "COAL BRANCH RIVER AT BEERSVILLE",
        "state": "NB",
        "siteId": "01BS001",
        "longitude": -65.0649,
        "latitude": 46.4439,
        "source": "ENVIRONMENT_CANADA"
    },
    {
        "country": "CA",
        "gageName": "DENNIS STREAM NEAR ST. STEPHEN",
        "state": "NB",
        "siteId": "01AR006",
        "longitude": -67.2622,
        "latitude": 45.209,
        "source": "ENVIRONMENT_CANADA"
    },
    {
        "country": "CA",
        "gageName": "EEL RIVER NEAR DUNDEE",
        "state": "NB",
        "siteId": "01BJ012",
        "longitude": -66.4906,
        "latitude": 47.9879,
        "source": "ENVIRONMENT_CANADA"
    },
    {
        "country": "CA",
        "gageName": "FRENCH LAKE AT LAKEVILLE CORNER",
        "state": "NB",
        "siteId": "01AO010",
        "longitude": -66.2564,
        "latitude": 45.9088,
        "source": "ENVIRONMENT_CANADA"
    },
    {
        "country": "CA",
        "gageName": "GRAND LAKE AT NEWCASTLE CREEK",
        "state": "NB",
        "siteId": "01AO003",
        "longitude": -66.0057,
        "latitude": 46.0564,
        "source": "ENVIRONMENT_CANADA"
    },
    {
        "country": "CA",
        "gageName": "GRANDE RIVIERE AT VIOLETTE BRIDGE",
        "state": "NB",
        "siteId": "01AF007",
        "longitude": -67.9213,
        "latitude": 47.247,
        "source": "ENVIRONMENT_CANADA"
    },
    {
        "country": "CA",
        "gageName": "HOLMES BROOK SITE NO. 9 NEAR PETITCODIAC",
        "state": "NB",
        "siteId": "01BU009",
        "longitude": -65.1468,
        "latitude": 45.8879,
        "source": "ENVIRONMENT_CANADA"
    },
    {
        "country": "CA",
        "gageName": "IROQUOIS RIVER AT MOULIN MORNEAULT",
        "state": "NB",
        "siteId": "01AF009",
        "longitude": -68.3568,
        "latitude": 47.4578,
        "source": "ENVIRONMENT_CANADA"
    },
    {
        "country": "CA",
        "gageName": "JACQUET RIVER NEAR DURHAM CENTRE",
        "state": "NB",
        "siteId": "01BJ003",
        "longitude": -66.0252,
        "latitude": 47.8938,
        "source": "ENVIRONMENT_CANADA"
    },
    {
        "country": "CA",
        "gageName": "JEMSEG RIVER AT JEMSEG",
        "state": "NB",
        "siteId": "01AO004",
        "longitude": -66.1154,
        "latitude": 45.8289,
        "source": "ENVIRONMENT_CANADA"
    },
    {
        "country": "CA",
        "gageName": "KENNEBECASIS RIVER AT APOHAQUI",
        "state": "NB",
        "siteId": "01AP004",
        "longitude": -65.6017,
        "latitude": 45.7014,
        "source": "ENVIRONMENT_CANADA"
    },
    {
        "country": "CA",
        "gageName": "LEPREAU RIVER AT LEPREAU",
        "state": "NB",
        "siteId": "01AQ001",
        "longitude": -66.4683,
        "latitude": 45.1698,
        "source": "ENVIRONMENT_CANADA"
    },
    {
        "country": "CA",
        "gageName": "LITTLE SOUTHWEST MIRAMICHI RIVER AT LYTTLETON",
        "state": "NB",
        "siteId": "01BP001",
        "longitude": -65.9074,
        "latitude": 46.936,
        "source": "ENVIRONMENT_CANADA"
    },
    {
        "country": "CA",
        "gageName": "MAGAGUADAVIC LAKE NEAR UPPER MAGAGUADAVIC",
        "state": "NB",
        "siteId": "01AQ007",
        "longitude": -67.1836,
        "latitude": 45.7197,
        "source": "ENVIRONMENT_CANADA"
    },
    {
        "country": "CA",
        "gageName": "MAGAGUADAVIC RIVER AT ELMCROFT",
        "state": "NB",
        "siteId": "01AQ002",
        "longitude": -66.8067,
        "latitude": 45.2733,
        "source": "ENVIRONMENT_CANADA"
    },
    {
        "country": "CA",
        "gageName": "MEDUXNEKEAG RIVER NEAR BELLEVILLE",
        "state": "NB",
        "siteId": "01AJ003",
        "longitude": -67.7279,
        "latitude": 46.2162,
        "source": "ENVIRONMENT_CANADA"
    },
    {
        "country": "CA",
        "gageName": "MIDDLE BRANCH NASHWAAKSIS STREAM AT SANDWITH'S FARM",
        "state": "NB",
        "siteId": "01AK006",
        "longitude": -66.733,
        "latitude": 46.0828,
        "source": "ENVIRONMENT_CANADA"
    },
    {
        "country": "CA",
        "gageName": "MIDDLE RIVER NEAR BATHURST",
        "state": "NB",
        "siteId": "01BJ010",
        "longitude": -65.7218,
        "latitude": 47.6084,
        "source": "ENVIRONMENT_CANADA"
    },
    {
        "country": "CA",
        "gageName": "NACKAWIC STREAM NEAR TEMPERANCE VALE",
        "state": "NB",
        "siteId": "01AK007",
        "longitude": -67.2396,
        "latitude": 46.0488,
        "source": "ENVIRONMENT_CANADA"
    },
    {
        "country": "CA",
        "gageName": "NARROWS MOUNTAIN BROOK NEAR NARROWS MOUNTAIN",
        "state": "NB",
        "siteId": "01AL004",
        "longitude": -67.0214,
        "latitude": 46.2772,
        "source": "ENVIRONMENT_CANADA"
    },
    {
        "country": "CA",
        "gageName": "NASHWAAK RIVER AT DURHAM BRIDGE",
        "state": "NB",
        "siteId": "01AL002",
        "longitude": -66.6113,
        "latitude": 46.1259,
        "source": "ENVIRONMENT_CANADA"
    },
    {
        "country": "CA",
        "gageName": "NEREPIS RIVER NEAR FOWLERS CORNER",
        "state": "NB",
        "siteId": "01AP006",
        "longitude": -66.319,
        "latitude": 45.5034,
        "source": "ENVIRONMENT_CANADA"
    },
    {
        "country": "CA",
        "gageName": "NORTH BRANCH OROMOCTO RIVER AT TRACY",
        "state": "NB",
        "siteId": "01AM001",
        "longitude": -66.6829,
        "latitude": 45.6738,
        "source": "ENVIRONMENT_CANADA"
    },
    {
        "country": "CA",
        "gageName": "NORTHWEST MIRAMICHI RIVER AT TROUT BROOK",
        "state": "NB",
        "siteId": "01BQ001",
        "longitude": -65.8365,
        "latitude": 47.0947,
        "source": "ENVIRONMENT_CANADA"
    },
    {
        "country": "CA",
        "gageName": "PETITCODIAC RIVER NEAR PETITCODIAC",
        "state": "NB",
        "siteId": "01BU002",
        "longitude": -65.1682,
        "latitude": 45.9464,
        "source": "ENVIRONMENT_CANADA"
    },
    {
        "country": "CA",
        "gageName": "POINT WOLFE RIVER AT FUNDY NATIONAL PARK",
        "state": "NB",
        "siteId": "01BV006",
        "longitude": -65.016,
        "latitude": 45.5586,
        "source": "ENVIRONMENT_CANADA"
    },
    {
        "country": "CA",
        "gageName": "RESTIGOUCHE RIVER ABOVE RAFTING GROUND BROOK",
        "state": "NB",
        "siteId": "01BJ007",
        "longitude": -66.9481,
        "latitude": 47.9087,
        "source": "ENVIRONMENT_CANADA"
    },
    {
        "country": "CA",
        "gageName": "RESTIGOUCHE RIVER BELOW KEDGWICK RIVER",
        "state": "NB",
        "siteId": "01BC001",
        "longitude": -67.4831,
        "latitude": 47.6671,
        "source": "ENVIRONMENT_CANADA"
    },
    {
        "country": "CA",
        "gageName": "RIVIERE CARAQUET AT BURNSVILLE",
        "state": "NB",
        "siteId": "01BL002",
        "longitude": -65.1554,
        "latitude": 47.7056,
        "source": "ENVIRONMENT_CANADA"
    },
    {
        "country": "CA",
        "gageName": "SAINT JOHN RIVER AT EDMUNDSTON",
        "state": "NB",
        "siteId": "01AD004",
        "longitude": -68.3249,
        "latitude": 47.3608,
        "source": "ENVIRONMENT_CANADA"
    },
    {
        "country": "CA",
        "gageName": "SAINT JOHN RIVER AT FREDERICTON",
        "state": "NB",
        "siteId": "01AK003",
        "longitude": -66.6516,
        "latitude": 45.9662,
        "source": "ENVIRONMENT_CANADA"
    },
    {
        "country": "CA",
        "gageName": "SAINT JOHN RIVER AT GAGETOWN",
        "state": "NB",
        "siteId": "01AO012",
        "longitude": -66.1404,
        "latitude": 45.7687,
        "source": "ENVIRONMENT_CANADA"
    },
    {
        "country": "CA",
        "gageName": "SAINT JOHN RIVER AT GRAND FALLS",
        "state": "NB",
        "siteId": "01AF002",
        "longitude": -67.7397,
        "latitude": 47.0389,
        "source": "ENVIRONMENT_CANADA"
    },
    {
        "country": "CA",
        "gageName": "SAINT JOHN RIVER AT MAUGERVILLE",
        "state": "NB",
        "siteId": "01AO002",
        "longitude": -66.4532,
        "latitude": 45.8665,
        "source": "ENVIRONMENT_CANADA"
    },
    {
        "country": "CA",
        "gageName": "SAINT JOHN RIVER AT OAK POINT",
        "state": "NB",
        "siteId": "01AP003",
        "longitude": -66.0766,
        "latitude": 45.5194,
        "source": "ENVIRONMENT_CANADA"
    },
    {
        "country": "CA",
        "gageName": "SAINT JOHN RIVER AT SAINT JOHN",
        "state": "NB",
        "siteId": "01AP005",
        "longitude": -66.0889,
        "latitude": 45.2734,
        "source": "ENVIRONMENT_CANADA"
    },
    {
        "country": "CA",
        "gageName": "SAINT JOHN RIVER AT UPPER GAGETOWN",
        "state": "NB",
        "siteId": "01AO011",
        "longitude": -66.2349,
        "latitude": 45.8473,
        "source": "ENVIRONMENT_CANADA"
    },
    {
        "country": "CA",
        "gageName": "SALMON RIVER AT CASTAWAY",
        "state": "NB",
        "siteId": "01AN002",
        "longitude": -65.7227,
        "latitude": 46.2907,
        "source": "ENVIRONMENT_CANADA"
    },
    {
        "country": "CA",
        "gageName": "SHOGOMOC STREAM NEAR TRANS CANADA HIGHWAY",
        "state": "NB",
        "siteId": "01AK001",
        "longitude": -67.3204,
        "latitude": 45.9435,
        "source": "ENVIRONMENT_CANADA"
    },
    {
        "country": "CA",
        "gageName": "SOUTHWEST MIRAMICHI RIVER AT BLACKVILLE",
        "state": "NB",
        "siteId": "01BO001",
        "longitude": -65.8256,
        "latitude": 46.736,
        "source": "ENVIRONMENT_CANADA"
    },
    {
        "country": "CA",
        "gageName": "SPEDNIC LAKE AT ST. CROIX",
        "state": "NB",
        "siteId": "01AR010",
        "longitude": -67.4273,
        "latitude": 45.5692,
        "source": "ENVIRONMENT_CANADA"
    },
    {
        "country": "CA",
        "gageName": "ST. CROIX RIVER AT MILLTOWN DAM",
        "state": "NB",
        "siteId": "01AR014",
        "longitude": -67.2929,
        "latitude": 45.1752,
        "source": "ENVIRONMENT_CANADA"
    },
    {
        "country": "CA",
        "gageName": "ST. FRANCIS RIVER AT OUTLET OF GLASIER LAKE",
        "state": "NB",
        "siteId": "01AD003",
        "longitude": -68.9569,
        "latitude": 47.2066,
        "source": "ENVIRONMENT_CANADA"
    },
    {
        "country": "CA",
        "gageName": "TOBIQUE RIVER AT RILEY BROOK",
        "state": "NB",
        "siteId": "01AH002",
        "longitude": -67.2108,
        "latitude": 47.173,
        "source": "ENVIRONMENT_CANADA"
    },
    {
        "country": "CA",
        "gageName": "UPSALQUITCH RIVER AT UPSALQUITCH",
        "state": "NB",
        "siteId": "01BE001",
        "longitude": -66.8871,
        "latitude": 47.8325,
        "source": "ENVIRONMENT_CANADA"
    }
]