[{"country":"CA","name":"BARBARA WEIT STREAM AT CAVENDISH FARM","state":"PE","siteId":"01CB018","longitude":-63.6804,"latitude":46.4275,"source":"ENVIRONMENT_CANADA"},{"country":"CA","name":"BEAR RIVER AT ST. MARGARETS","state":"PE","siteId":"01CD005","longitude":-62.3823,"latitude":46.4531,"source":"ENVIRONMENT_CANADA"},{"country":"CA","name":"CARRUTHERS BROOK NEAR ST. ANTHONY","state":"PE","siteId":"01CA003","longitude":-64.187,"latitude":46.7441,"source":"ENVIRONMENT_CANADA"},{"country":"CA","name":"COLES CREEK AT MILTONVALE PUMPING STATION","state":"PE","siteId":"01CC011","longitude":-63.1949,"latitude":46.3102,"source":"ENVIRONMENT_CANADA"},{"country":"CA","name":"DUNK RIVER AT WALL ROAD","state":"PE","siteId":"01CB002","longitude":-63.6333,"latitude":46.3459,"source":"ENVIRONMENT_CANADA"},{"country":"CA","name":"WEST RIVER AT RIVERDALE","state":"PE","siteId":"01CC005","longitude":-63.3511,"latitude":46.2314,"source":"ENVIRONMENT_CANADA"},{"country":"CA","name":"WILMOT RIVER NEAR WILMOT VALLEY","state":"PE","siteId":"01CB004","longitude":-63.6594,"latitude":46.3933,"source":"ENVIRONMENT_CANADA"},{"country":"CA","name":"WINTER RIVER AT UNION","state":"PE","siteId":"01CC010","longitude":-63.1234,"latitude":46.3148,"source":"ENVIRONMENT_CANADA"},{"country":"CA","name":"WINTER RIVER NEAR SUFFOLK","state":"PE","siteId":"01CC002","longitude":-63.0655,"latitude":46.3321,"source":"ENVIRONMENT_CANADA"}]
