[{"country":"CA","name":"AISHIHIK LAKE NEAR AISHIHIK","state":"YT","siteId":"08AA012","longitude":-137.4113,"latitude":61.5931,"source":"ENVIRONMENT_CANADA"},{"country":"CA","name":"AISHIHIK LAKE NEAR WHITEHORSE","state":"YT","siteId":"08AA005","longitude":-136.9996,"latitude":61.1974,"source":"ENVIRONMENT_CANADA"},{"country":"CA","name":"AISHIHIK RIVER BELOW AISHIHIK LAKE","state":"YT","siteId":"08AA010","longitude":-136.9916,"latitude":61.1852,"source":"ENVIRONMENT_CANADA"},{"country":"CA","name":"ALSEK RIVER ABOVE BATES RIVER","state":"YT","siteId":"08AB001","longitude":-137.9778,"latitude":60.1183,"source":"ENVIRONMENT_CANADA"},{"country":"CA","name":"BABBAGE RIVER BELOW CARIBOU CREEK","state":"YT","siteId":"10MD002","longitude":-138.6683,"latitude":68.8392,"source":"ENVIRONMENT_CANADA"},{"country":"CA","name":"BEAVER RIVER BELOW MATSON CREEK","state":"YT","siteId":"09DB001","longitude":-134.1392,"latitude":64.015,"source":"ENVIRONMENT_CANADA"},{"country":"CA","name":"BEAVER RIVER BELOW WHITEFISH RIVER","state":"YT","siteId":"10BD001","longitude":-124.8893,"latitude":60.1307,"source":"ENVIRONMENT_CANADA"},{"country":"CA","name":"BENNETT LAKE AT CARCROSS","state":"YT","siteId":"09AA004","longitude":-134.7075,"latitude":60.1639,"source":"ENVIRONMENT_CANADA"},{"country":"CA","name":"BIG CREEK AT KM 1084.8 ALASKA HIGHWAY","state":"YT","siteId":"10AA005","longitude":-129.7028,"latitude":60.1583,"source":"ENVIRONMENT_CANADA"},{"country":"CA","name":"BIG CREEK NEAR THE MOUTH","state":"YT","siteId":"09AH003","longitude":-137.0097,"latitude":62.5678,"source":"ENVIRONMENT_CANADA"},{"country":"CA","name":"BIG SALMON RIVER NEAR CARMACKS","state":"YT","siteId":"09AG001","longitude":-134.8363,"latitude":61.8726,"source":"ENVIRONMENT_CANADA"},{"country":"CA","name":"BLACKSTONE RIVER NEAR CHAPMAN LAKE AIRSTRIP","state":"YT","siteId":"10MA003","longitude":-138.2758,"latitude":64.9014,"source":"ENVIRONMENT_CANADA"},{"country":"CA","name":"BONNET PLUME RIVER ABOVE GILLESPIE CREEK","state":"YT","siteId":"10MB004","longitude":-133.6806,"latitude":64.7483,"source":"ENVIRONMENT_CANADA"},{"country":"CA","name":"DEZADEASH RIVER AT HAINES JUNCTION","state":"YT","siteId":"08AA003","longitude":-137.5083,"latitude":60.7481,"source":"ENVIRONMENT_CANADA"},{"country":"CA","name":"DRURY CREEK AT KM 469 ROBERT CAMPBELL HIGHWAY","state":"YT","siteId":"09AH005","longitude":-134.3879,"latitude":62.2002,"source":"ENVIRONMENT_CANADA"},{"country":"CA","name":"DUKE RIVER NEAR THE MOUTH","state":"YT","siteId":"09CA004","longitude":-139.1679,"latitude":61.346,"source":"ENVIRONMENT_CANADA"},{"country":"CA","name":"EAGLE RIVER AT DEMPSTER HIGHWAY BRIDGE","state":"YT","siteId":"09FB002","longitude":-136.7092,"latitude":66.4435,"source":"ENVIRONMENT_CANADA"},{"country":"CA","name":"FIRTH RIVER NEAR THE MOUTH","state":"YT","siteId":"10MD001","longitude":-139.5674,"latitude":69.3266,"source":"ENVIRONMENT_CANADA"},{"country":"CA","name":"FRANCES RIVER NEAR WATSON LAKE","state":"YT","siteId":"10AB001","longitude":-129.1189,"latitude":60.4739,"source":"ENVIRONMENT_CANADA"},{"country":"CA","name":"GILTANA CREEK NEAR THE MOUTH","state":"YT","siteId":"08AA009","longitude":-136.9822,"latitude":61.195,"source":"ENVIRONMENT_CANADA"},{"country":"CA","name":"HESS RIVER ABOVE EMERALD CREEK","state":"YT","siteId":"09DA001","longitude":-131.4909,"latitude":63.3335,"source":"ENVIRONMENT_CANADA"},{"country":"CA","name":"HYLAND RIVER AT KILOMETRE 108.5 NAHANNI RANGE ROAD","state":"YT","siteId":"10AD002","longitude":-128.2421,"latitude":61.4868,"source":"ENVIRONMENT_CANADA"},{"country":"CA","name":"IBEX RIVER NEAR WHITEHORSE","state":"YT","siteId":"09AC007","longitude":-135.4863,"latitude":60.7257,"source":"ENVIRONMENT_CANADA"},{"country":"CA","name":"INDIAN RIVER ABOVE THE MOUTH","state":"YT","siteId":"09EB003","longitude":-139.6296,"latitude":63.77,"source":"ENVIRONMENT_CANADA"},{"country":"CA","name":"KLONDIKE RIVER ABOVE BONANZA CREEK","state":"YT","siteId":"09EA003","longitude":-139.4078,"latitude":64.0428,"source":"ENVIRONMENT_CANADA"},{"country":"CA","name":"KLONDIKE RIVER AT ROCK CREEK","state":"YT","siteId":"09EA006","longitude":-139.0838,"latitude":64.0621,"source":"ENVIRONMENT_CANADA"},{"country":"CA","name":"KLUANE LAKE NEAR BURWASH LANDING","state":"YT","siteId":"09CA001","longitude":-138.5059,"latitude":61.0545,"source":"ENVIRONMENT_CANADA"},{"country":"CA","name":"KLUANE RIVER AT OUTLET OF KLUANE LAKE","state":"YT","siteId":"09CA002","longitude":-139.0489,"latitude":61.4269,"source":"ENVIRONMENT_CANADA"},{"country":"CA","name":"LABICHE RIVER AT YUKON/BC BOUNDARY","state":"YT","siteId":"10DB001","longitude":-124.1083,"latitude":60.0059,"source":"ENVIRONMENT_CANADA"},{"country":"CA","name":"LAKE LABERGE NEAR WHITEHORSE","state":"YT","siteId":"09AB010","longitude":-135.1992,"latitude":61.0903,"source":"ENVIRONMENT_CANADA"},{"country":"CA","name":"LIARD RIVER AT UPPER CROSSING","state":"YT","siteId":"10AA001","longitude":-128.9069,"latitude":60.0508,"source":"ENVIRONMENT_CANADA"},{"country":"CA","name":"LIARD RIVER BELOW SCURVY CREEK","state":"YT","siteId":"10AA006","longitude":-130.521,"latitude":60.8108,"source":"ENVIRONMENT_CANADA"},{"country":"CA","name":"LITTLE SOUTH KLONDIKE RIVER BELOW ROSS CREEK","state":"YT","siteId":"09EA005","longitude":-137.5722,"latitude":63.9958,"source":"ENVIRONMENT_CANADA"},{"country":"CA","name":"MARSH LAKE NEAR WHITEHORSE","state":"YT","siteId":"09AB004","longitude":-134.3653,"latitude":60.5306,"source":"ENVIRONMENT_CANADA"},{"country":"CA","name":"MAYO LAKE NEAR THE OUTLET","state":"YT","siteId":"09DC005","longitude":-135.3881,"latitude":63.7733,"source":"ENVIRONMENT_CANADA"},{"country":"CA","name":"MCQUESTEN RIVER NEAR THE MOUTH","state":"YT","siteId":"09DD004","longitude":-137.2694,"latitude":63.6111,"source":"ENVIRONMENT_CANADA"},{"country":"CA","name":"MORELY RIVER AT KM 1251 ALASKA HIGHWAY","state":"YT","siteId":"09AE006","longitude":-132.1444,"latitude":60.0069,"source":"ENVIRONMENT_CANADA"},{"country":"CA","name":"NISLING RIVER BELOW ONION CREEK","state":"YT","siteId":"09CA006","longitude":-139.0426,"latitude":62.205,"source":"ENVIRONMENT_CANADA"},{"country":"CA","name":"NORDENSKIOLD RIVER BELOW ROWLINSON CREEK","state":"YT","siteId":"09AH004","longitude":-136.2803,"latitude":62.0512,"source":"ENVIRONMENT_CANADA"},{"country":"CA","name":"NORTH KLONDIKE RIVER NEAR THE MOUTH","state":"YT","siteId":"09EA004","longitude":-138.5963,"latitude":64.002,"source":"ENVIRONMENT_CANADA"},{"country":"CA","name":"OGILVIE RIVER AT KILOMETRE 197.9 DEMPSTER HIGHWAY","state":"YT","siteId":"10MA002","longitude":-138.2972,"latitude":65.3625,"source":"ENVIRONMENT_CANADA"},{"country":"CA","name":"OLD CROW RIVER NEAR THE MOUTH","state":"YT","siteId":"09FC001","longitude":-139.6964,"latitude":67.6344,"source":"ENVIRONMENT_CANADA"},{"country":"CA","name":"PEEL RIVER ABOVE CANYON CREEK","state":"YT","siteId":"10MA001","longitude":-136.0381,"latitude":65.8925,"source":"ENVIRONMENT_CANADA"},{"country":"CA","name":"PELLY RIVER AT PELLY CROSSING","state":"YT","siteId":"09BC001","longitude":-136.5806,"latitude":62.8297,"source":"ENVIRONMENT_CANADA"},{"country":"CA","name":"PELLY RIVER AT ROSS RIVER","state":"YT","siteId":"09BC002","longitude":-132.4476,"latitude":61.9866,"source":"ENVIRONMENT_CANADA"},{"country":"CA","name":"PELLY RIVER BELOW VANGORDA CREEK","state":"YT","siteId":"09BC004","longitude":-133.3778,"latitude":62.2207,"source":"ENVIRONMENT_CANADA"},{"country":"CA","name":"PORCUPINE RIVER BELOW OLD CROW RIVER","state":"YT","siteId":"09FD003","longitude":-139.8343,"latitude":67.5683,"source":"ENVIRONMENT_CANADA"},{"country":"CA","name":"PORCUPINE RIVER NEAR INTERNATIONAL BOUNDARY","state":"YT","siteId":"09FD002","longitude":-140.8911,"latitude":67.4242,"source":"ENVIRONMENT_CANADA"},{"country":"CA","name":"QUIET LAKE AT KILOMETRE 98 SOUTH CANOL ROAD","state":"YT","siteId":"09AG002","longitude":-133.0806,"latitude":61.1431,"source":"ENVIRONMENT_CANADA"},{"country":"CA","name":"RANCHERIA RIVER NEAR THE MOUTH","state":"YT","siteId":"10AA004","longitude":-129.55,"latitude":60.2042,"source":"ENVIRONMENT_CANADA"},{"country":"CA","name":"ROSS RIVER AT ROSS RIVER","state":"YT","siteId":"09BA001","longitude":-132.4072,"latitude":61.9888,"source":"ENVIRONMENT_CANADA"},{"country":"CA","name":"SEKULMUN LAKE NEAR WHITEHORSE","state":"YT","siteId":"08AA007","longitude":-137.5905,"latitude":61.536,"source":"ENVIRONMENT_CANADA"},{"country":"CA","name":"SEKULMUN RIVER AT OUTLET OF SEKULMUN LAKE","state":"YT","siteId":"08AA008","longitude":-137.5374,"latitude":61.5604,"source":"ENVIRONMENT_CANADA"},{"country":"CA","name":"SIDNEY CREEK AT KILOMETRE 46 SOUTH CANOL ROAD","state":"YT","siteId":"09AD002","longitude":-133.0654,"latitude":60.7887,"source":"ENVIRONMENT_CANADA"},{"country":"CA","name":"SISTER CREEK AT KM 426 DEMPSTER HIGHWAY","state":"YT","siteId":"09FB003","longitude":-136.3559,"latitude":66.7432,"source":"ENVIRONMENT_CANADA"},{"country":"CA","name":"SIXTY MILE RIVER NEAR THE MOUTH","state":"YT","siteId":"09EB004","longitude":-140.1599,"latitude":63.6894,"source":"ENVIRONMENT_CANADA"},{"country":"CA","name":"SNAKE RIVER NEAR THE MOUTH","state":"YT","siteId":"10MB003","longitude":-134.0356,"latitude":65.9703,"source":"ENVIRONMENT_CANADA"},{"country":"CA","name":"SOUTH MACMILLAN RIVER AT KILOMETRE 407 CANOL ROAD","state":"YT","siteId":"09BB001","longitude":-130.5417,"latitude":62.925,"source":"ENVIRONMENT_CANADA"},{"country":"CA","name":"STEWART RIVER AT THE MOUTH","state":"YT","siteId":"09DD003","longitude":-139.2544,"latitude":63.2822,"source":"ENVIRONMENT_CANADA"},{"country":"CA","name":"STEWART RIVER NEAR MAYO","state":"YT","siteId":"09DC006","longitude":-135.8967,"latitude":63.5906,"source":"ENVIRONMENT_CANADA"},{"country":"CA","name":"TAGISH LAKE AT 10 MILE ROAD","state":"YT","siteId":"09AA017","longitude":-134.3756,"latitude":60.1594,"source":"ENVIRONMENT_CANADA"},{"country":"CA","name":"TAKHANNE RIVER AT KM 167 HAINES HIGHWAY","state":"YT","siteId":"08AC001","longitude":-136.9276,"latitude":60.1134,"source":"ENVIRONMENT_CANADA"},{"country":"CA","name":"TAKHINI RIVER NEAR WHITEHORSE","state":"YT","siteId":"09AC001","longitude":-135.7411,"latitude":60.8511,"source":"ENVIRONMENT_CANADA"},{"country":"CA","name":"TATSHENSHINI RIVER NEAR DALTON POST","state":"YT","siteId":"08AC002","longitude":-137.0846,"latitude":60.119,"source":"ENVIRONMENT_CANADA"},{"country":"CA","name":"TESLIN LAKE AT TESLIN","state":"YT","siteId":"09AE002","longitude":-132.7075,"latitude":60.1583,"source":"ENVIRONMENT_CANADA"},{"country":"CA","name":"WEST AISHIHIK RIVER NEAR THE MOUTH","state":"YT","siteId":"08AA011","longitude":-137.1656,"latitude":61.0503,"source":"ENVIRONMENT_CANADA"},{"country":"CA","name":"WHEATON RIVER NEAR CARCROSS","state":"YT","siteId":"09AA012","longitude":-134.8836,"latitude":60.1278,"source":"ENVIRONMENT_CANADA"},{"country":"CA","name":"WHITE RIVER AT KILOMETRE 1881.6 ALASKA HIGHWAY","state":"YT","siteId":"09CB001","longitude":-140.5587,"latitude":61.9882,"source":"ENVIRONMENT_CANADA"},{"country":"CA","name":"WHITESTONE RIVER NEAR THE MOUTH","state":"YT","siteId":"09FA001","longitude":-138.4028,"latitude":66.4272,"source":"ENVIRONMENT_CANADA"},{"country":"CA","name":"YUKON RIVER ABOVE WHITE RIVER","state":"YT","siteId":"09CD001","longitude":-139.4969,"latitude":63.0825,"source":"ENVIRONMENT_CANADA"},{"country":"CA","name":"YUKON RIVER AT CARMACKS","state":"YT","siteId":"09AH001","longitude":-136.2722,"latitude":62.0944,"source":"ENVIRONMENT_CANADA"},{"country":"CA","name":"YUKON RIVER AT DAWSON","state":"YT","siteId":"09EB001","longitude":-139.425,"latitude":64.07,"source":"ENVIRONMENT_CANADA"},{"country":"CA","name":"YUKON RIVER AT WHITEHORSE","state":"YT","siteId":"09AB001","longitude":-135.064,"latitude":60.7445,"source":"ENVIRONMENT_CANADA"}]
